{
  "type": "FeatureCollection",
  "features": [
    {
      "type": "Feature",
      "properties": {
        "stop_id": "5",
        "stop_code": "02",
        "stop_name": "Radarowa"
      },
      "geometry": {
        "type": "Point",
        "coordinates": [
          20.962959,
          52.188762
        ]
      }
    },
    {
      "type": "Feature",
      "properties": {
        "stop_id": "6",
        "stop_code": "01",
        "stop_name": "Radarowa"
      },
      "geometry": {
        "type": "Point",
        "coordinates": [
          20.964077,
          52.188116
        ]
      }
    },
    {
      "type": "Feature",
      "properties": {
        "stop_id": "7",
        "stop_code": "01",
        "stop_name": "Hynka"
      },
      "geometry": {
        "type": "Point",
        "coordinates": [
          20.958908,
          52.190665
        ]
      }
    },
    {
      "type": "Feature",
      "properties": {
        "stop_id": "8",
        "stop_code": "02",
        "stop_name": "Hynka"
      },
      "geometry": {
        "type": "Point",
        "coordinates": [
          20.957438,
          52.189708
        ]
      }
    },
    {
      "type": "Feature",
      "properties": {
        "stop_id": "11",
        "stop_code": "01",
        "stop_name": "PKP Rakowiec"
      },
      "geometry": {
        "type": "Point",
        "coordinates": [
          20.965464,
          52.197993
        ]
      }
    },
    {
      "type": "Feature",
      "properties": {
        "stop_id": "18",
        "stop_code": "01",
        "stop_name": "Astronautów"
      },
      "geometry": {
        "type": "Point",
        "coordinates": [
          20.97497,
          52.184561
        ]
      }
    },
    {
      "type": "Feature",
      "properties": {
        "stop_id": "19",
        "stop_code": "02",
        "stop_name": "Sasanki"
      },
      "geometry": {
        "type": "Point",
        "coordinates": [
          20.979223,
          52.184076
        ]
      }
    },
    {
      "type": "Feature",
      "properties": {
        "stop_id": "21",
        "stop_code": "02",
        "stop_name": "Novotel"
      },
      "geometry": {
        "type": "Point",
        "coordinates": [
          20.981564,
          52.190923
        ]
      }
    },
    {
      "type": "Feature",
      "properties": {
        "stop_id": "27",
        "stop_code": "01",
        "stop_name": "WKD Raków"
      },
      "geometry": {
        "type": "Point",
        "coordinates": [
          20.936086,
          52.19435
        ]
      }
    },
    {
      "type": "Feature",
      "properties": {
        "stop_id": "37",
        "stop_code": "02",
        "stop_name": "PKP Włochy"
      },
      "geometry": {
        "type": "Point",
        "coordinates": [
          20.916138,
          52.205172
        ]
      }
    },
    {
      "type": "Feature",
      "properties": {
        "stop_id": "43",
        "stop_code": "01",
        "stop_name": "Szuberta"
      },
      "geometry": {
        "type": "Point",
        "coordinates": [
          20.900539,
          52.208249
        ]
      }
    },
    {
      "type": "Feature",
      "properties": {
        "stop_id": "48",
        "stop_code": "02",
        "stop_name": "Pl. Tysiąclecia"
      },
      "geometry": {
        "type": "Point",
        "coordinates": [
          20.892343,
          52.193284
        ]
      }
    },
    {
      "type": "Feature",
      "properties": {
        "stop_id": "53",
        "stop_code": "01",
        "stop_name": "Malinowa"
      },
      "geometry": {
        "type": "Point",
        "coordinates": [
          20.883541,
          52.193734
        ]
      }
    },
    {
      "type": "Feature",
      "properties": {
        "stop_id": "54",
        "stop_code": "03",
        "stop_name": "Ryżowa"
      },
      "geometry": {
        "type": "Point",
        "coordinates": [
          20.914849,
          52.199564
        ]
      }
    },
    {
      "type": "Feature",
      "properties": {
        "stop_id": "57",
        "stop_code": "01",
        "stop_name": "Zajezdnia Kleszczowa"
      },
      "geometry": {
        "type": "Point",
        "coordinates": [
          20.924876,
          52.196522
        ]
      }
    },
    {
      "type": "Feature",
      "properties": {
        "stop_id": "58",
        "stop_code": "02",
        "stop_name": "Ursus-Ratusz"
      },
      "geometry": {
        "type": "Point",
        "coordinates": [
          20.896157,
          52.200889
        ]
      }
    },
    {
      "type": "Feature",
      "properties": {
        "stop_id": "60",
        "stop_code": "02",
        "stop_name": "Szuberta"
      },
      "geometry": {
        "type": "Point",
        "coordinates": [
          20.899918,
          52.208376
        ]
      }
    },
    {
      "type": "Feature",
      "properties": {
        "stop_id": "66",
        "stop_code": "05",
        "stop_name": "PKP Włochy"
      },
      "geometry": {
        "type": "Point",
        "coordinates": [
          20.912752,
          52.206155
        ]
      }
    },
    {
      "type": "Feature",
      "properties": {
        "stop_id": "67",
        "stop_code": "03",
        "stop_name": "Wałowicka"
      },
      "geometry": {
        "type": "Point",
        "coordinates": [
          20.914684,
          52.209898
        ]
      }
    },
    {
      "type": "Feature",
      "properties": {
        "stop_id": "68",
        "stop_code": "01",
        "stop_name": "Wałowicka"
      },
      "geometry": {
        "type": "Point",
        "coordinates": [
          20.913925,
          52.208744
        ]
      }
    },
    {
      "type": "Feature",
      "properties": {
        "stop_id": "69",
        "stop_code": "02",
        "stop_name": "Wałowicka"
      },
      "geometry": {
        "type": "Point",
        "coordinates": [
          20.914274,
          52.208603
        ]
      }
    },
    {
      "type": "Feature",
      "properties": {
        "stop_id": "71",
        "stop_code": "01",
        "stop_name": "Bełzy"
      },
      "geometry": {
        "type": "Point",
        "coordinates": [
          20.87436,
          52.195262
        ]
      }
    },
    {
      "type": "Feature",
      "properties": {
        "stop_id": "72",
        "stop_code": "02",
        "stop_name": "Bełzy"
      },
      "geometry": {
        "type": "Point",
        "coordinates": [
          20.872935,
          52.195142
        ]
      }
    },
    {
      "type": "Feature",
      "properties": {
        "stop_id": "79",
        "stop_code": "01",
        "stop_name": "Sympatyczna"
      },
      "geometry": {
        "type": "Point",
        "coordinates": [
          20.920463,
          52.209582
        ]
      }
    },
    {
      "type": "Feature",
      "properties": {
        "stop_id": "80",
        "stop_code": "02",
        "stop_name": "Sympatyczna"
      },
      "geometry": {
        "type": "Point",
        "coordinates": [
          20.920132,
          52.20972
        ]
      }
    },
    {
      "type": "Feature",
      "properties": {
        "stop_id": "82",
        "stop_code": "01",
        "stop_name": "Techników"
      },
      "geometry": {
        "type": "Point",
        "coordinates": [
          20.92339,
          52.204327
        ]
      }
    },
    {
      "type": "Feature",
      "properties": {
        "stop_id": "83",
        "stop_code": "03",
        "stop_name": "Mikołajska"
      },
      "geometry": {
        "type": "Point",
        "coordinates": [
          20.926094,
          52.203444
        ]
      }
    },
    {
      "type": "Feature",
      "properties": {
        "stop_id": "89",
        "stop_code": "02",
        "stop_name": "Przedpole"
      },
      "geometry": {
        "type": "Point",
        "coordinates": [
          20.942085,
          52.193449
        ]
      }
    },
    {
      "type": "Feature",
      "properties": {
        "stop_id": "90",
        "stop_code": "01",
        "stop_name": "Novotel"
      },
      "geometry": {
        "type": "Point",
        "coordinates": [
          20.98099,
          52.190711
        ]
      }
    },
    {
      "type": "Feature",
      "properties": {
        "stop_id": "93",
        "stop_code": "03",
        "stop_name": "Sasanki"
      },
      "geometry": {
        "type": "Point",
        "coordinates": [
          20.979998,
          52.182977
        ]
      }
    },
    {
      "type": "Feature",
      "properties": {
        "stop_id": "95",
        "stop_code": "04",
        "stop_name": "Komitetu Obrony Robotników"
      },
      "geometry": {
        "type": "Point",
        "coordinates": [
          20.976853,
          52.180481
        ]
      }
    },
    {
      "type": "Feature",
      "properties": {
        "stop_id": "96",
        "stop_code": "03",
        "stop_name": "Komitetu Obrony Robotników"
      },
      "geometry": {
        "type": "Point",
        "coordinates": [
          20.979457,
          52.179165
        ]
      }
    },
    {
      "type": "Feature",
      "properties": {
        "stop_id": "100",
        "stop_code": "02",
        "stop_name": "PKP Służewiec"
      },
      "geometry": {
        "type": "Point",
        "coordinates": [
          20.9869,
          52.181703
        ]
      }
    },
    {
      "type": "Feature",
      "properties": {
        "stop_id": "103",
        "stop_code": "02",
        "stop_name": "Ogród Działkowy im. Warneńczyka"
      },
      "geometry": {
        "type": "Point",
        "coordinates": [
          20.96002,
          52.184667
        ]
      }
    },
    {
      "type": "Feature",
      "properties": {
        "stop_id": "133",
        "stop_code": "01",
        "stop_name": "Korotyńskiego"
      },
      "geometry": {
        "type": "Point",
        "coordinates": [
          20.969024,
          52.202141
        ]
      }
    },
    {
      "type": "Feature",
      "properties": {
        "stop_id": "134",
        "stop_code": "05",
        "stop_name": "Dickensa"
      },
      "geometry": {
        "type": "Point",
        "coordinates": [
          20.971125,
          52.206074
        ]
      }
    },
    {
      "type": "Feature",
      "properties": {
        "stop_id": "158",
        "stop_code": "01",
        "stop_name": "Baleya"
      },
      "geometry": {
        "type": "Point",
        "coordinates": [
          20.98267,
          52.195621
        ]
      }
    },
    {
      "type": "Feature",
      "properties": {
        "stop_id": "159",
        "stop_code": "01",
        "stop_name": "Rakowiec"
      },
      "geometry": {
        "type": "Point",
        "coordinates": [
          20.983413,
          52.197917
        ]
      }
    },
    {
      "type": "Feature",
      "properties": {
        "stop_id": "161",
        "stop_code": "01",
        "stop_name": "Pruszkowska"
      },
      "geometry": {
        "type": "Point",
        "coordinates": [
          20.984391,
          52.200788
        ]
      }
    },
    {
      "type": "Feature",
      "properties": {
        "stop_id": "162",
        "stop_code": "04",
        "stop_name": "Pruszkowska"
      },
      "geometry": {
        "type": "Point",
        "coordinates": [
          20.983635,
          52.201483
        ]
      }
    },
    {
      "type": "Feature",
      "properties": {
        "stop_id": "163",
        "stop_code": "01",
        "stop_name": "Uniwersytet Medyczny"
      },
      "geometry": {
        "type": "Point",
        "coordinates": [
          20.985773,
          52.204773
        ]
      }
    },
    {
      "type": "Feature",
      "properties": {
        "stop_id": "173",
        "stop_code": "01",
        "stop_name": "Grzymały-Sokołowskiego"
      },
      "geometry": {
        "type": "Point",
        "coordinates": [
          20.971861,
          52.219953
        ]
      }
    },
    {
      "type": "Feature",
      "properties": {
        "stop_id": "174",
        "stop_code": "02",
        "stop_name": "Grzymały-Sokołowskiego"
      },
      "geometry": {
        "type": "Point",
        "coordinates": [
          20.971756,
          52.220265
        ]
      }
    },
    {
      "type": "Feature",
      "properties": {
        "stop_id": "2",
        "stop_code": "02",
        "stop_name": "Włochy-Ratusz"
      },
      "geometry": {
        "type": "Point",
        "coordinates": [
          20.960045,
          52.192628
        ]
      }
    },
    {
      "type": "Feature",
      "properties": {
        "stop_id": "15",
        "stop_code": "01",
        "stop_name": "Krakowiaków"
      },
      "geometry": {
        "type": "Point",
        "coordinates": [
          20.953668,
          52.184943
        ]
      }
    },
    {
      "type": "Feature",
      "properties": {
        "stop_id": "24",
        "stop_code": "01",
        "stop_name": "Orzechowa"
      },
      "geometry": {
        "type": "Point",
        "coordinates": [
          20.949257,
          52.191881
        ]
      }
    },
    {
      "type": "Feature",
      "properties": {
        "stop_id": "26",
        "stop_code": "01",
        "stop_name": "Przedpole"
      },
      "geometry": {
        "type": "Point",
        "coordinates": [
          20.944688,
          52.192768
        ]
      }
    },
    {
      "type": "Feature",
      "properties": {
        "stop_id": "30",
        "stop_code": "01",
        "stop_name": "PKP WKD Al. Jerozolimskie"
      },
      "geometry": {
        "type": "Point",
        "coordinates": [
          20.943216,
          52.20576
        ]
      }
    },
    {
      "type": "Feature",
      "properties": {
        "stop_id": "31",
        "stop_code": "02",
        "stop_name": "Mikołajska"
      },
      "geometry": {
        "type": "Point",
        "coordinates": [
          20.928346,
          52.203003
        ]
      }
    },
    {
      "type": "Feature",
      "properties": {
        "stop_id": "32",
        "stop_code": "99",
        "stop_name": "R11(K)"
      },
      "geometry": {
        "type": "Point",
        "coordinates": [
          20.922746,
          52.196605
        ]
      }
    },
    {
      "type": "Feature",
      "properties": {
        "stop_id": "35",
        "stop_code": "02",
        "stop_name": "Techników"
      },
      "geometry": {
        "type": "Point",
        "coordinates": [
          20.923649,
          52.204673
        ]
      }
    },
    {
      "type": "Feature",
      "properties": {
        "stop_id": "38",
        "stop_code": "03",
        "stop_name": "Sympatyczna"
      },
      "geometry": {
        "type": "Point",
        "coordinates": [
          20.91986,
          52.2103
        ]
      }
    },
    {
      "type": "Feature",
      "properties": {
        "stop_id": "40",
        "stop_code": "02",
        "stop_name": "Parowcowa"
      },
      "geometry": {
        "type": "Point",
        "coordinates": [
          20.91389,
          52.21233
        ]
      }
    },
    {
      "type": "Feature",
      "properties": {
        "stop_id": "47",
        "stop_code": "02",
        "stop_name": "Szancera"
      },
      "geometry": {
        "type": "Point",
        "coordinates": [
          20.897835,
          52.195708
        ]
      }
    },
    {
      "type": "Feature",
      "properties": {
        "stop_id": "49",
        "stop_code": "01",
        "stop_name": "Adamieckiego"
      },
      "geometry": {
        "type": "Point",
        "coordinates": [
          20.895804,
          52.193649
        ]
      }
    },
    {
      "type": "Feature",
      "properties": {
        "stop_id": "59",
        "stop_code": "02",
        "stop_name": "Przepiórki"
      },
      "geometry": {
        "type": "Point",
        "coordinates": [
          20.903698,
          52.202854
        ]
      }
    },
    {
      "type": "Feature",
      "properties": {
        "stop_id": "62",
        "stop_code": "01",
        "stop_name": "Rybnicka"
      },
      "geometry": {
        "type": "Point",
        "coordinates": [
          20.904879,
          52.207546
        ]
      }
    },
    {
      "type": "Feature",
      "properties": {
        "stop_id": "65",
        "stop_code": "04",
        "stop_name": "PKP Włochy"
      },
      "geometry": {
        "type": "Point",
        "coordinates": [
          20.914393,
          52.206308
        ]
      }
    },
    {
      "type": "Feature",
      "properties": {
        "stop_id": "76",
        "stop_code": "02",
        "stop_name": "Lalki"
      },
      "geometry": {
        "type": "Point",
        "coordinates": [
          20.878799,
          52.197696
        ]
      }
    },
    {
      "type": "Feature",
      "properties": {
        "stop_id": "77",
        "stop_code": "02",
        "stop_name": "Wojciechowskiego"
      },
      "geometry": {
        "type": "Point",
        "coordinates": [
          20.87856,
          52.19586
        ]
      }
    },
    {
      "type": "Feature",
      "properties": {
        "stop_id": "85",
        "stop_code": "02",
        "stop_name": "Popularna"
      },
      "geometry": {
        "type": "Point",
        "coordinates": [
          20.935062,
          52.200724
        ]
      }
    },
    {
      "type": "Feature",
      "properties": {
        "stop_id": "86",
        "stop_code": "04",
        "stop_name": "Popularna"
      },
      "geometry": {
        "type": "Point",
        "coordinates": [
          20.934734,
          52.20167
        ]
      }
    },
    {
      "type": "Feature",
      "properties": {
        "stop_id": "87",
        "stop_code": "02",
        "stop_name": "PKP WKD Al. Jerozolimskie"
      },
      "geometry": {
        "type": "Point",
        "coordinates": [
          20.94275,
          52.205798
        ]
      }
    },
    {
      "type": "Feature",
      "properties": {
        "stop_id": "88",
        "stop_code": "02",
        "stop_name": "WKD Raków"
      },
      "geometry": {
        "type": "Point",
        "coordinates": [
          20.936107,
          52.194523
        ]
      }
    },
    {
      "type": "Feature",
      "properties": {
        "stop_id": "99",
        "stop_code": "01",
        "stop_name": "PKP Służewiec"
      },
      "geometry": {
        "type": "Point",
        "coordinates": [
          20.986991,
          52.181179
        ]
      }
    },
    {
      "type": "Feature",
      "properties": {
        "stop_id": "102",
        "stop_code": "01",
        "stop_name": "Ogród Działkowy im. Warneńczyka"
      },
      "geometry": {
        "type": "Point",
        "coordinates": [
          20.96096,
          52.18422
        ]
      }
    },
    {
      "type": "Feature",
      "properties": {
        "stop_id": "105",
        "stop_code": "02",
        "stop_name": "Drzewieckiego"
      },
      "geometry": {
        "type": "Point",
        "coordinates": [
          20.972613,
          52.182213
        ]
      }
    },
    {
      "type": "Feature",
      "properties": {
        "stop_id": "120",
        "stop_code": "02",
        "stop_name": "Instytut Lotnictwa"
      },
      "geometry": {
        "type": "Point",
        "coordinates": [
          20.947972,
          52.180173
        ]
      }
    },
    {
      "type": "Feature",
      "properties": {
        "stop_id": "140",
        "stop_code": "02",
        "stop_name": "Och-Teatr"
      },
      "geometry": {
        "type": "Point",
        "coordinates": [
          20.979874,
          52.215146
        ]
      }
    },
    {
      "type": "Feature",
      "properties": {
        "stop_id": "154",
        "stop_code": "02",
        "stop_name": "Uniwersytet Medyczny"
      },
      "geometry": {
        "type": "Point",
        "coordinates": [
          20.98633,
          52.20478
        ]
      }
    },
    {
      "type": "Feature",
      "properties": {
        "stop_id": "175",
        "stop_code": "01",
        "stop_name": "Dw. Zachodni"
      },
      "geometry": {
        "type": "Point",
        "coordinates": [
          20.96707,
          52.218142
        ]
      }
    },
    {
      "type": "Feature",
      "properties": {
        "stop_id": "184",
        "stop_code": "01",
        "stop_name": "Śmigłowca"
      },
      "geometry": {
        "type": "Point",
        "coordinates": [
          20.950296,
          52.210414
        ]
      }
    },
    {
      "type": "Feature",
      "properties": {
        "stop_id": "196",
        "stop_code": "01",
        "stop_name": "Wiślicka"
      },
      "geometry": {
        "type": "Point",
        "coordinates": [
          20.975571,
          52.204008
        ]
      }
    },
    {
      "type": "Feature",
      "properties": {
        "stop_id": "199",
        "stop_code": "01",
        "stop_name": "Urbanistów"
      },
      "geometry": {
        "type": "Point",
        "coordinates": [
          20.968261,
          52.207347
        ]
      }
    },
    {
      "type": "Feature",
      "properties": {
        "stop_id": "204",
        "stop_code": "07",
        "stop_name": "Szczęśliwice"
      },
      "geometry": {
        "type": "Point",
        "coordinates": [
          20.963953,
          52.209078
        ]
      }
    },
    {
      "type": "Feature",
      "properties": {
        "stop_id": "205",
        "stop_code": "01",
        "stop_name": "Szczęśliwice"
      },
      "geometry": {
        "type": "Point",
        "coordinates": [
          20.963907,
          52.20808
        ]
      }
    },
    {
      "type": "Feature",
      "properties": {
        "stop_id": "214",
        "stop_code": "03",
        "stop_name": "Grzymały-Sokołowskiego"
      },
      "geometry": {
        "type": "Point",
        "coordinates": [
          20.974148,
          52.218507
        ]
      }
    },
    {
      "type": "Feature",
      "properties": {
        "stop_id": "217",
        "stop_code": "04",
        "stop_name": "Pl. Unii Lubelskiej"
      },
      "geometry": {
        "type": "Point",
        "coordinates": [
          21.021201,
          52.212656
        ]
      }
    },
    {
      "type": "Feature",
      "properties": {
        "stop_id": "230",
        "stop_code": "02",
        "stop_name": "Łagiewnicka"
      },
      "geometry": {
        "type": "Point",
        "coordinates": [
          21.018279,
          52.128428
        ]
      }
    },
    {
      "type": "Feature",
      "properties": {
        "stop_id": "241",
        "stop_code": "01",
        "stop_name": "Tor Stegny"
      },
      "geometry": {
        "type": "Point",
        "coordinates": [
          21.047606,
          52.189332
        ]
      }
    },
    {
      "type": "Feature",
      "properties": {
        "stop_id": "250",
        "stop_code": "02",
        "stop_name": "Dolina Służewiecka"
      },
      "geometry": {
        "type": "Point",
        "coordinates": [
          21.044629,
          52.175922
        ]
      }
    },
    {
      "type": "Feature",
      "properties": {
        "stop_id": "255",
        "stop_code": "03",
        "stop_name": "Vogla"
      },
      "geometry": {
        "type": "Point",
        "coordinates": [
          21.08898,
          52.159841
        ]
      }
    },
    {
      "type": "Feature",
      "properties": {
        "stop_id": "258",
        "stop_code": "01",
        "stop_name": "Czekoladowa"
      },
      "geometry": {
        "type": "Point",
        "coordinates": [
          21.101014,
          52.132183
        ]
      }
    },
    {
      "type": "Feature",
      "properties": {
        "stop_id": "260",
        "stop_code": "03",
        "stop_name": "Przekorna"
      },
      "geometry": {
        "type": "Point",
        "coordinates": [
          21.102747,
          52.124162
        ]
      }
    },
    {
      "type": "Feature",
      "properties": {
        "stop_id": "270",
        "stop_code": "02",
        "stop_name": "Pl. Bernardyński"
      },
      "geometry": {
        "type": "Point",
        "coordinates": [
          21.05468,
          52.194802
        ]
      }
    },
    {
      "type": "Feature",
      "properties": {
        "stop_id": "3",
        "stop_code": "03",
        "stop_name": "Instalatorów"
      },
      "geometry": {
        "type": "Point",
        "coordinates": [
          20.94777,
          52.20054
        ]
      }
    },
    {
      "type": "Feature",
      "properties": {
        "stop_id": "9",
        "stop_code": "05",
        "stop_name": "Hynka"
      },
      "geometry": {
        "type": "Point",
        "coordinates": [
          20.958956,
          52.189736
        ]
      }
    },
    {
      "type": "Feature",
      "properties": {
        "stop_id": "12",
        "stop_code": "06",
        "stop_name": "PKP Rakowiec"
      },
      "geometry": {
        "type": "Point",
        "coordinates": [
          20.963027,
          52.197225
        ]
      }
    },
    {
      "type": "Feature",
      "properties": {
        "stop_id": "13",
        "stop_code": "05",
        "stop_name": "PKP Rakowiec"
      },
      "geometry": {
        "type": "Point",
        "coordinates": [
          20.963032,
          52.197154
        ]
      }
    },
    {
      "type": "Feature",
      "properties": {
        "stop_id": "14",
        "stop_code": "02",
        "stop_name": "Instalatorów-KAM"
      },
      "geometry": {
        "type": "Point",
        "coordinates": [
          20.956597,
          52.198638
        ]
      }
    },
    {
      "type": "Feature",
      "properties": {
        "stop_id": "17",
        "stop_code": "05",
        "stop_name": "Krakowiaków"
      },
      "geometry": {
        "type": "Point",
        "coordinates": [
          20.95501,
          52.185585
        ]
      }
    },
    {
      "type": "Feature",
      "properties": {
        "stop_id": "28",
        "stop_code": "01",
        "stop_name": "Łopuszańska"
      },
      "geometry": {
        "type": "Point",
        "coordinates": [
          20.929963,
          52.196661
        ]
      }
    },
    {
      "type": "Feature",
      "properties": {
        "stop_id": "34",
        "stop_code": "02",
        "stop_name": "Ryżowa"
      },
      "geometry": {
        "type": "Point",
        "coordinates": [
          20.914527,
          52.200197
        ]
      }
    },
    {
      "type": "Feature",
      "properties": {
        "stop_id": "36",
        "stop_code": "01",
        "stop_name": "Płużańska"
      },
      "geometry": {
        "type": "Point",
        "coordinates": [
          20.92496,
          52.207103
        ]
      }
    },
    {
      "type": "Feature",
      "properties": {
        "stop_id": "46",
        "stop_code": "04",
        "stop_name": "Dzieci Warszawy"
      },
      "geometry": {
        "type": "Point",
        "coordinates": [
          20.907106,
          52.192569
        ]
      }
    },
    {
      "type": "Feature",
      "properties": {
        "stop_id": "50",
        "stop_code": "01",
        "stop_name": "Spisaka"
      },
      "geometry": {
        "type": "Point",
        "coordinates": [
          20.884608,
          52.189394
        ]
      }
    },
    {
      "type": "Feature",
      "properties": {
        "stop_id": "51",
        "stop_code": "01",
        "stop_name": "Kuźnicy Kołłątajowskiej"
      },
      "geometry": {
        "type": "Point",
        "coordinates": [
          20.877188,
          52.188925
        ]
      }
    },
    {
      "type": "Feature",
      "properties": {
        "stop_id": "56",
        "stop_code": "02",
        "stop_name": "Dojazdowa"
      },
      "geometry": {
        "type": "Point",
        "coordinates": [
          20.918372,
          52.198656
        ]
      }
    },
    {
      "type": "Feature",
      "properties": {
        "stop_id": "63",
        "stop_code": "01",
        "stop_name": "PKP Włochy"
      },
      "geometry": {
        "type": "Point",
        "coordinates": [
          20.915649,
          52.205261
        ]
      }
    },
    {
      "type": "Feature",
      "properties": {
        "stop_id": "70",
        "stop_code": "01",
        "stop_name": "Parowcowa"
      },
      "geometry": {
        "type": "Point",
        "coordinates": [
          20.91364,
          52.211792
        ]
      }
    },
    {
      "type": "Feature",
      "properties": {
        "stop_id": "73",
        "stop_code": "01",
        "stop_name": "Wojciechowskiego"
      },
      "geometry": {
        "type": "Point",
        "coordinates": [
          20.879662,
          52.195927
        ]
      }
    },
    {
      "type": "Feature",
      "properties": {
        "stop_id": "75",
        "stop_code": "01",
        "stop_name": "PKP Ursus"
      },
      "geometry": {
        "type": "Point",
        "coordinates": [
          20.885155,
          52.196616
        ]
      }
    },
    {
      "type": "Feature",
      "properties": {
        "stop_id": "84",
        "stop_code": "03",
        "stop_name": "Łopuszańska"
      },
      "geometry": {
        "type": "Point",
        "coordinates": [
          20.929711,
          52.195435
        ]
      }
    },
    {
      "type": "Feature",
      "properties": {
        "stop_id": "91",
        "stop_code": "02",
        "stop_name": "Leżajska"
      },
      "geometry": {
        "type": "Point",
        "coordinates": [
          20.980859,
          52.188852
        ]
      }
    },
    {
      "type": "Feature",
      "properties": {
        "stop_id": "92",
        "stop_code": "04",
        "stop_name": "Sasanki"
      },
      "geometry": {
        "type": "Point",
        "coordinates": [
          20.977725,
          52.184058
        ]
      }
    },
    {
      "type": "Feature",
      "properties": {
        "stop_id": "94",
        "stop_code": "01",
        "stop_name": "Sasanki"
      },
      "geometry": {
        "type": "Point",
        "coordinates": [
          20.978309,
          52.182674
        ]
      }
    },
    {
      "type": "Feature",
      "properties": {
        "stop_id": "101",
        "stop_code": "01",
        "stop_name": "Niemcewicza"
      },
      "geometry": {
        "type": "Point",
        "coordinates": [
          20.983932,
          52.221266
        ]
      }
    },
    {
      "type": "Feature",
      "properties": {
        "stop_id": "106",
        "stop_code": "01",
        "stop_name": "Lindleya"
      },
      "geometry": {
        "type": "Point",
        "coordinates": [
          20.996509,
          52.22341
        ]
      }
    },
    {
      "type": "Feature",
      "properties": {
        "stop_id": "108",
        "stop_code": "04",
        "stop_name": "Szczęśliwicka"
      },
      "geometry": {
        "type": "Point",
        "coordinates": [
          20.969541,
          52.214961
        ]
      }
    },
    {
      "type": "Feature",
      "properties": {
        "stop_id": "111",
        "stop_code": "03",
        "stop_name": "Szczęśliwicka"
      },
      "geometry": {
        "type": "Point",
        "coordinates": [
          20.967357,
          52.212844
        ]
      }
    },
    {
      "type": "Feature",
      "properties": {
        "stop_id": "112",
        "stop_code": "01",
        "stop_name": "Wawelska"
      },
      "geometry": {
        "type": "Point",
        "coordinates": [
          20.981885,
          52.216846
        ]
      }
    },
    {
      "type": "Feature",
      "properties": {
        "stop_id": "113",
        "stop_code": "06",
        "stop_name": "Wawelska"
      },
      "geometry": {
        "type": "Point",
        "coordinates": [
          20.979869,
          52.216872
        ]
      }
    },
    {
      "type": "Feature",
      "properties": {
        "stop_id": "114",
        "stop_code": "05",
        "stop_name": "Wawelska"
      },
      "geometry": {
        "type": "Point",
        "coordinates": [
          20.982821,
          52.21596
        ]
      }
    },
    {
      "type": "Feature",
      "properties": {
        "stop_id": "115",
        "stop_code": "02",
        "stop_name": "Al. Wielkopolski"
      },
      "geometry": {
        "type": "Point",
        "coordinates": [
          20.996292,
          52.216876
        ]
      }
    },
    {
      "type": "Feature",
      "properties": {
        "stop_id": "116",
        "stop_code": "01",
        "stop_name": "Al. Wielkopolski"
      },
      "geometry": {
        "type": "Point",
        "coordinates": [
          20.995427,
          52.216514
        ]
      }
    },
    {
      "type": "Feature",
      "properties": {
        "stop_id": "122",
        "stop_code": "01",
        "stop_name": "Szyszkowa"
      },
      "geometry": {
        "type": "Point",
        "coordinates": [
          20.939599,
          52.171967
        ]
      }
    },
    {
      "type": "Feature",
      "properties": {
        "stop_id": "123",
        "stop_code": "02",
        "stop_name": "Szyszkowa"
      },
      "geometry": {
        "type": "Point",
        "coordinates": [
          20.93782,
          52.170818
        ]
      }
    },
    {
      "type": "Feature",
      "properties": {
        "stop_id": "132",
        "stop_code": "01",
        "stop_name": "Instytut Lotnictwa"
      },
      "geometry": {
        "type": "Point",
        "coordinates": [
          20.94693,
          52.178724
        ]
      }
    },
    {
      "type": "Feature",
      "properties": {
        "stop_id": "151",
        "stop_code": "02",
        "stop_name": "Raszyńska"
      },
      "geometry": {
        "type": "Point",
        "coordinates": [
          20.989858,
          52.219806
        ]
      }
    },
    {
      "type": "Feature",
      "properties": {
        "stop_id": "152",
        "stop_code": "03",
        "stop_name": "Pomnik Lotnika"
      },
      "geometry": {
        "type": "Point",
        "coordinates": [
          20.99134,
          52.21627
        ]
      }
    },
    {
      "type": "Feature",
      "properties": {
        "stop_id": "157",
        "stop_code": "02",
        "stop_name": "Baleya"
      },
      "geometry": {
        "type": "Point",
        "coordinates": [
          20.983278,
          52.195996
        ]
      }
    },
    {
      "type": "Feature",
      "properties": {
        "stop_id": "160",
        "stop_code": "03",
        "stop_name": "Rakowiec"
      },
      "geometry": {
        "type": "Point",
        "coordinates": [
          20.984813,
          52.198198
        ]
      }
    },
    {
      "type": "Feature",
      "properties": {
        "stop_id": "167",
        "stop_code": "01",
        "stop_name": "Pomnik Lotnika"
      },
      "geometry": {
        "type": "Point",
        "coordinates": [
          20.988137,
          52.215562
        ]
      }
    },
    {
      "type": "Feature",
      "properties": {
        "stop_id": "170",
        "stop_code": "01",
        "stop_name": "Raszyńska"
      },
      "geometry": {
        "type": "Point",
        "coordinates": [
          20.989364,
          52.219861
        ]
      }
    },
    {
      "type": "Feature",
      "properties": {
        "stop_id": "171",
        "stop_code": "02",
        "stop_name": "Spiska"
      },
      "geometry": {
        "type": "Point",
        "coordinates": [
          20.983374,
          52.223449
        ]
      }
    },
    {
      "type": "Feature",
      "properties": {
        "stop_id": "180",
        "stop_code": "04",
        "stop_name": "Rondo Zesłańców Syberyjskich"
      },
      "geometry": {
        "type": "Point",
        "coordinates": [
          20.962881,
          52.215981
        ]
      }
    },
    {
      "type": "Feature",
      "properties": {
        "stop_id": "187",
        "stop_code": "01",
        "stop_name": "Pl. Starynkiewicza"
      },
      "geometry": {
        "type": "Point",
        "coordinates": [
          20.994585,
          52.226023
        ]
      }
    },
    {
      "type": "Feature",
      "properties": {
        "stop_id": "193",
        "stop_code": "02",
        "stop_name": "Siemieńskiego"
      },
      "geometry": {
        "type": "Point",
        "coordinates": [
          20.97393,
          52.202292
        ]
      }
    },
    {
      "type": "Feature",
      "properties": {
        "stop_id": "1",
        "stop_code": "01",
        "stop_name": "Włochy-Ratusz"
      },
      "geometry": {
        "type": "Point",
        "coordinates": [
          20.961425,
          52.193603
        ]
      }
    },
    {
      "type": "Feature",
      "properties": {
        "stop_id": "4",
        "stop_code": "01",
        "stop_name": "Instalatorów-KAM"
      },
      "geometry": {
        "type": "Point",
        "coordinates": [
          20.958632,
          52.198139
        ]
      }
    },
    {
      "type": "Feature",
      "properties": {
        "stop_id": "10",
        "stop_code": "06",
        "stop_name": "Hynka"
      },
      "geometry": {
        "type": "Point",
        "coordinates": [
          20.957315,
          52.190608
        ]
      }
    },
    {
      "type": "Feature",
      "properties": {
        "stop_id": "16",
        "stop_code": "02",
        "stop_name": "Krakowiaków"
      },
      "geometry": {
        "type": "Point",
        "coordinates": [
          20.953468,
          52.185296
        ]
      }
    },
    {
      "type": "Feature",
      "properties": {
        "stop_id": "20",
        "stop_code": "01",
        "stop_name": "Leżajska"
      },
      "geometry": {
        "type": "Point",
        "coordinates": [
          20.980224,
          52.188542
        ]
      }
    },
    {
      "type": "Feature",
      "properties": {
        "stop_id": "22",
        "stop_code": "02",
        "stop_name": "Komitetu Obrony Robotników"
      },
      "geometry": {
        "type": "Point",
        "coordinates": [
          20.978217,
          52.180657
        ]
      }
    },
    {
      "type": "Feature",
      "properties": {
        "stop_id": "23",
        "stop_code": "01",
        "stop_name": "Ośrodek Wojskowy"
      },
      "geometry": {
        "type": "Point",
        "coordinates": [
          20.979166,
          52.174773
        ]
      }
    },
    {
      "type": "Feature",
      "properties": {
        "stop_id": "25",
        "stop_code": "02",
        "stop_name": "Orzechowa"
      },
      "geometry": {
        "type": "Point",
        "coordinates": [
          20.949007,
          52.192147
        ]
      }
    },
    {
      "type": "Feature",
      "properties": {
        "stop_id": "29",
        "stop_code": "01",
        "stop_name": "Popularna"
      },
      "geometry": {
        "type": "Point",
        "coordinates": [
          20.937159,
          52.201614
        ]
      }
    },
    {
      "type": "Feature",
      "properties": {
        "stop_id": "33",
        "stop_code": "01",
        "stop_name": "Dojazdowa"
      },
      "geometry": {
        "type": "Point",
        "coordinates": [
          20.92001,
          52.198162
        ]
      }
    },
    {
      "type": "Feature",
      "properties": {
        "stop_id": "39",
        "stop_code": "04",
        "stop_name": "Wałowicka"
      },
      "geometry": {
        "type": "Point",
        "coordinates": [
          20.913975,
          52.209584
        ]
      }
    },
    {
      "type": "Feature",
      "properties": {
        "stop_id": "41",
        "stop_code": "01",
        "stop_name": "Wagonownia"
      },
      "geometry": {
        "type": "Point",
        "coordinates": [
          20.930345,
          52.214575
        ]
      }
    },
    {
      "type": "Feature",
      "properties": {
        "stop_id": "44",
        "stop_code": "01",
        "stop_name": "Przepiórki"
      },
      "geometry": {
        "type": "Point",
        "coordinates": [
          20.904685,
          52.203095
        ]
      }
    },
    {
      "type": "Feature",
      "properties": {
        "stop_id": "45",
        "stop_code": "01",
        "stop_name": "Ursus-Ratusz"
      },
      "geometry": {
        "type": "Point",
        "coordinates": [
          20.89617,
          52.201675
        ]
      }
    },
    {
      "type": "Feature",
      "properties": {
        "stop_id": "52",
        "stop_code": "01",
        "stop_name": "Prażmowska"
      },
      "geometry": {
        "type": "Point",
        "coordinates": [
          20.879202,
          52.192921
        ]
      }
    },
    {
      "type": "Feature",
      "properties": {
        "stop_id": "55",
        "stop_code": "04",
        "stop_name": "Ryżowa"
      },
      "geometry": {
        "type": "Point",
        "coordinates": [
          20.913533,
          52.199122
        ]
      }
    },
    {
      "type": "Feature",
      "properties": {
        "stop_id": "61",
        "stop_code": "02",
        "stop_name": "Rybnicka"
      },
      "geometry": {
        "type": "Point",
        "coordinates": [
          20.90585,
          52.20743
        ]
      }
    },
    {
      "type": "Feature",
      "properties": {
        "stop_id": "64",
        "stop_code": "03",
        "stop_name": "PKP Włochy"
      },
      "geometry": {
        "type": "Point",
        "coordinates": [
          20.916014,
          52.207194
        ]
      }
    },
    {
      "type": "Feature",
      "properties": {
        "stop_id": "74",
        "stop_code": "02",
        "stop_name": "PKP Ursus"
      },
      "geometry": {
        "type": "Point",
        "coordinates": [
          20.887404,
          52.197457
        ]
      }
    },
    {
      "type": "Feature",
      "properties": {
        "stop_id": "81",
        "stop_code": "02",
        "stop_name": "Płużańska"
      },
      "geometry": {
        "type": "Point",
        "coordinates": [
          20.924843,
          52.208121
        ]
      }
    },
    {
      "type": "Feature",
      "properties": {
        "stop_id": "97",
        "stop_code": "01",
        "stop_name": "Komitetu Obrony Robotników"
      },
      "geometry": {
        "type": "Point",
        "coordinates": [
          20.978165,
          52.178995
        ]
      }
    },
    {
      "type": "Feature",
      "properties": {
        "stop_id": "98",
        "stop_code": "02",
        "stop_name": "Ośrodek Wojskowy"
      },
      "geometry": {
        "type": "Point",
        "coordinates": [
          20.979489,
          52.175245
        ]
      }
    },
    {
      "type": "Feature",
      "properties": {
        "stop_id": "104",
        "stop_code": "01",
        "stop_name": "Drzewieckiego"
      },
      "geometry": {
        "type": "Point",
        "coordinates": [
          20.973909,
          52.181438
        ]
      }
    },
    {
      "type": "Feature",
      "properties": {
        "stop_id": "118",
        "stop_code": "01",
        "stop_name": "Dickensa"
      },
      "geometry": {
        "type": "Point",
        "coordinates": [
          20.972424,
          52.205955
        ]
      }
    },
    {
      "type": "Feature",
      "properties": {
        "stop_id": "119",
        "stop_code": "02",
        "stop_name": "Korotyńskiego"
      },
      "geometry": {
        "type": "Point",
        "coordinates": [
          20.969346,
          52.203134
        ]
      }
    },
    {
      "type": "Feature",
      "properties": {
        "stop_id": "139",
        "stop_code": "01",
        "stop_name": "Och-Teatr"
      },
      "geometry": {
        "type": "Point",
        "coordinates": [
          20.97996,
          52.214723
        ]
      }
    },
    {
      "type": "Feature",
      "properties": {
        "stop_id": "155",
        "stop_code": "02",
        "stop_name": "Pruszkowska"
      },
      "geometry": {
        "type": "Point",
        "coordinates": [
          20.985227,
          52.201602
        ]
      }
    },
    {
      "type": "Feature",
      "properties": {
        "stop_id": "156",
        "stop_code": "02",
        "stop_name": "Rakowiec"
      },
      "geometry": {
        "type": "Point",
        "coordinates": [
          20.984341,
          52.198991
        ]
      }
    },
    {
      "type": "Feature",
      "properties": {
        "stop_id": "166",
        "stop_code": "02",
        "stop_name": "Pomnik Lotnika"
      },
      "geometry": {
        "type": "Point",
        "coordinates": [
          20.99031,
          52.216947
        ]
      }
    },
    {
      "type": "Feature",
      "properties": {
        "stop_id": "172",
        "stop_code": "02",
        "stop_name": "Białobrzeska"
      },
      "geometry": {
        "type": "Point",
        "coordinates": [
          20.977178,
          52.221724
        ]
      }
    },
    {
      "type": "Feature",
      "properties": {
        "stop_id": "181",
        "stop_code": "03",
        "stop_name": "Rondo Zesłańców Syberyjskich"
      },
      "geometry": {
        "type": "Point",
        "coordinates": [
          20.962222,
          52.215701
        ]
      }
    },
    {
      "type": "Feature",
      "properties": {
        "stop_id": "185",
        "stop_code": "02",
        "stop_name": "Śmigłowca"
      },
      "geometry": {
        "type": "Point",
        "coordinates": [
          20.94835,
          52.209613
        ]
      }
    },
    {
      "type": "Feature",
      "properties": {
        "stop_id": "186",
        "stop_code": "06",
        "stop_name": "Pl. Starynkiewicza"
      },
      "geometry": {
        "type": "Point",
        "coordinates": [
          20.995284,
          52.227547
        ]
      }
    },
    {
      "type": "Feature",
      "properties": {
        "stop_id": "188",
        "stop_code": "02",
        "stop_name": "Pl. Starynkiewicza"
      },
      "geometry": {
        "type": "Point",
        "coordinates": [
          20.99359,
          52.226104
        ]
      }
    },
    {
      "type": "Feature",
      "properties": {
        "stop_id": "191",
        "stop_code": "01",
        "stop_name": "Banacha"
      },
      "geometry": {
        "type": "Point",
        "coordinates": [
          20.980398,
          52.209911
        ]
      }
    },
    {
      "type": "Feature",
      "properties": {
        "stop_id": "192",
        "stop_code": "07",
        "stop_name": "Banacha"
      },
      "geometry": {
        "type": "Point",
        "coordinates": [
          20.984472,
          52.210395
        ]
      }
    },
    {
      "type": "Feature",
      "properties": {
        "stop_id": "194",
        "stop_code": "01",
        "stop_name": "Jasielska"
      },
      "geometry": {
        "type": "Point",
        "coordinates": [
          20.979404,
          52.198319
        ]
      }
    },
    {
      "type": "Feature",
      "properties": {
        "stop_id": "195",
        "stop_code": "02",
        "stop_name": "Mołdawska"
      },
      "geometry": {
        "type": "Point",
        "coordinates": [
          20.978637,
          52.200269
        ]
      }
    },
    {
      "type": "Feature",
      "properties": {
        "stop_id": "197",
        "stop_code": "02",
        "stop_name": "Wiślicka"
      },
      "geometry": {
        "type": "Point",
        "coordinates": [
          20.976254,
          52.204898
        ]
      }
    },
    {
      "type": "Feature",
      "properties": {
        "stop_id": "198",
        "stop_code": "01",
        "stop_name": "Mołdawska"
      },
      "geometry": {
        "type": "Point",
        "coordinates": [
          20.979279,
          52.201854
        ]
      }
    },
    {
      "type": "Feature",
      "properties": {
        "stop_id": "219",
        "stop_code": "02",
        "stop_name": "Dworkowa"
      },
      "geometry": {
        "type": "Point",
        "coordinates": [
          21.022893,
          52.206116
        ]
      }
    },
    {
      "type": "Feature",
      "properties": {
        "stop_id": "221",
        "stop_code": "02",
        "stop_name": "Malczewskiego"
      },
      "geometry": {
        "type": "Point",
        "coordinates": [
          21.024468,
          52.195237
        ]
      }
    },
    {
      "type": "Feature",
      "properties": {
        "stop_id": "229",
        "stop_code": "02",
        "stop_name": "Bogatki"
      },
      "geometry": {
        "type": "Point",
        "coordinates": [
          21.018181,
          52.132908
        ]
      }
    },
    {
      "type": "Feature",
      "properties": {
        "stop_id": "182",
        "stop_code": "05",
        "stop_name": "Rondo Zesłańców Syberyjskich"
      },
      "geometry": {
        "type": "Point",
        "coordinates": [
          20.963213,
          52.21681
        ]
      }
    },
    {
      "type": "Feature",
      "properties": {
        "stop_id": "183",
        "stop_code": "02",
        "stop_name": "Rondo Zesłańców Syberyjskich"
      },
      "geometry": {
        "type": "Point",
        "coordinates": [
          20.959279,
          52.216088
        ]
      }
    },
    {
      "type": "Feature",
      "properties": {
        "stop_id": "189",
        "stop_code": "01",
        "stop_name": "Skorochód-Majewskiego"
      },
      "geometry": {
        "type": "Point",
        "coordinates": [
          20.973884,
          52.205066
        ]
      }
    },
    {
      "type": "Feature",
      "properties": {
        "stop_id": "190",
        "stop_code": "02",
        "stop_name": "Banacha"
      },
      "geometry": {
        "type": "Point",
        "coordinates": [
          20.980293,
          52.209977
        ]
      }
    },
    {
      "type": "Feature",
      "properties": {
        "stop_id": "200",
        "stop_code": "04",
        "stop_name": "Grzymały-Sokołowskiego"
      },
      "geometry": {
        "type": "Point",
        "coordinates": [
          20.972001,
          52.21954
        ]
      }
    },
    {
      "type": "Feature",
      "properties": {
        "stop_id": "206",
        "stop_code": "02",
        "stop_name": "Szczęśliwice"
      },
      "geometry": {
        "type": "Point",
        "coordinates": [
          20.963822,
          52.207974
        ]
      }
    },
    {
      "type": "Feature",
      "properties": {
        "stop_id": "207",
        "stop_code": "03",
        "stop_name": "Szczęśliwice"
      },
      "geometry": {
        "type": "Point",
        "coordinates": [
          20.963753,
          52.207886
        ]
      }
    },
    {
      "type": "Feature",
      "properties": {
        "stop_id": "209",
        "stop_code": "05",
        "stop_name": "Szczęśliwice"
      },
      "geometry": {
        "type": "Point",
        "coordinates": [
          20.963604,
          52.2077
        ]
      }
    },
    {
      "type": "Feature",
      "properties": {
        "stop_id": "212",
        "stop_code": "01",
        "stop_name": "Hala Kopińska"
      },
      "geometry": {
        "type": "Point",
        "coordinates": [
          20.978082,
          52.217204
        ]
      }
    },
    {
      "type": "Feature",
      "properties": {
        "stop_id": "215",
        "stop_code": "06",
        "stop_name": "Grzymały-Sokołowskiego"
      },
      "geometry": {
        "type": "Point",
        "coordinates": [
          20.972894,
          52.218521
        ]
      }
    },
    {
      "type": "Feature",
      "properties": {
        "stop_id": "216",
        "stop_code": "05",
        "stop_name": "Grzymały-Sokołowskiego"
      },
      "geometry": {
        "type": "Point",
        "coordinates": [
          20.972594,
          52.21813
        ]
      }
    },
    {
      "type": "Feature",
      "properties": {
        "stop_id": "220",
        "stop_code": "02",
        "stop_name": "Park Dreszera"
      },
      "geometry": {
        "type": "Point",
        "coordinates": [
          21.024261,
          52.198088
        ]
      }
    },
    {
      "type": "Feature",
      "properties": {
        "stop_id": "222",
        "stop_code": "02",
        "stop_name": "Królikarnia"
      },
      "geometry": {
        "type": "Point",
        "coordinates": [
          21.02475,
          52.19076
        ]
      }
    },
    {
      "type": "Feature",
      "properties": {
        "stop_id": "224",
        "stop_code": "02",
        "stop_name": "Wyścigi"
      },
      "geometry": {
        "type": "Point",
        "coordinates": [
          21.018103,
          52.166876
        ]
      }
    },
    {
      "type": "Feature",
      "properties": {
        "stop_id": "225",
        "stop_code": "02",
        "stop_name": "Poleczki"
      },
      "geometry": {
        "type": "Point",
        "coordinates": [
          21.017981,
          52.154644
        ]
      }
    },
    {
      "type": "Feature",
      "properties": {
        "stop_id": "226",
        "stop_code": "02",
        "stop_name": "Grabów"
      },
      "geometry": {
        "type": "Point",
        "coordinates": [
          21.017862,
          52.147981
        ]
      }
    },
    {
      "type": "Feature",
      "properties": {
        "stop_id": "227",
        "stop_code": "02",
        "stop_name": "Sójki"
      },
      "geometry": {
        "type": "Point",
        "coordinates": [
          21.017918,
          52.144243
        ]
      }
    },
    {
      "type": "Feature",
      "properties": {
        "stop_id": "228",
        "stop_code": "02",
        "stop_name": "Żołny"
      },
      "geometry": {
        "type": "Point",
        "coordinates": [
          21.018166,
          52.140452
        ]
      }
    },
    {
      "type": "Feature",
      "properties": {
        "stop_id": "232",
        "stop_code": "02",
        "stop_name": "Kapeli"
      },
      "geometry": {
        "type": "Point",
        "coordinates": [
          21.018528,
          52.118243
        ]
      }
    },
    {
      "type": "Feature",
      "properties": {
        "stop_id": "234",
        "stop_code": "02",
        "stop_name": "Karczunkowska"
      },
      "geometry": {
        "type": "Point",
        "coordinates": [
          21.018669,
          52.112056
        ]
      }
    },
    {
      "type": "Feature",
      "properties": {
        "stop_id": "236",
        "stop_code": "01",
        "stop_name": "Trombity"
      },
      "geometry": {
        "type": "Point",
        "coordinates": [
          21.006081,
          52.110281
        ]
      }
    },
    {
      "type": "Feature",
      "properties": {
        "stop_id": "239",
        "stop_code": "02",
        "stop_name": "Kostrzewskiego"
      },
      "geometry": {
        "type": "Point",
        "coordinates": [
          21.039575,
          52.197243
        ]
      }
    },
    {
      "type": "Feature",
      "properties": {
        "stop_id": "248",
        "stop_code": "01",
        "stop_name": "Podbipięty"
      },
      "geometry": {
        "type": "Point",
        "coordinates": [
          21.029494,
          52.177904
        ]
      }
    },
    {
      "type": "Feature",
      "properties": {
        "stop_id": "252",
        "stop_code": "02",
        "stop_name": "Os. Arbuzowa"
      },
      "geometry": {
        "type": "Point",
        "coordinates": [
          21.060438,
          52.171573
        ]
      }
    },
    {
      "type": "Feature",
      "properties": {
        "stop_id": "254",
        "stop_code": "08",
        "stop_name": "Wilanów"
      },
      "geometry": {
        "type": "Point",
        "coordinates": [
          21.084809,
          52.167187
        ]
      }
    },
    {
      "type": "Feature",
      "properties": {
        "stop_id": "256",
        "stop_code": "02",
        "stop_name": "Powsinek"
      },
      "geometry": {
        "type": "Point",
        "coordinates": [
          21.091613,
          52.153205
        ]
      }
    },
    {
      "type": "Feature",
      "properties": {
        "stop_id": "259",
        "stop_code": "01",
        "stop_name": "Rosochata"
      },
      "geometry": {
        "type": "Point",
        "coordinates": [
          21.103404,
          52.126978
        ]
      }
    },
    {
      "type": "Feature",
      "properties": {
        "stop_id": "261",
        "stop_code": "02",
        "stop_name": "Andrutowa"
      },
      "geometry": {
        "type": "Point",
        "coordinates": [
          21.098543,
          52.123145
        ]
      }
    },
    {
      "type": "Feature",
      "properties": {
        "stop_id": "265",
        "stop_code": "01",
        "stop_name": "Powsin-Park Kultury"
      },
      "geometry": {
        "type": "Point",
        "coordinates": [
          21.09289,
          52.11673
        ]
      }
    },
    {
      "type": "Feature",
      "properties": {
        "stop_id": "268",
        "stop_code": "02",
        "stop_name": "Chełmska"
      },
      "geometry": {
        "type": "Point",
        "coordinates": [
          21.049677,
          52.203749
        ]
      }
    },
    {
      "type": "Feature",
      "properties": {
        "stop_id": "271",
        "stop_code": "03",
        "stop_name": "Gołkowska"
      },
      "geometry": {
        "type": "Point",
        "coordinates": [
          21.057627,
          52.19297
        ]
      }
    },
    {
      "type": "Feature",
      "properties": {
        "stop_id": "272",
        "stop_code": "02",
        "stop_name": "Limanowskiego"
      },
      "geometry": {
        "type": "Point",
        "coordinates": [
          21.059325,
          52.190924
        ]
      }
    },
    {
      "type": "Feature",
      "properties": {
        "stop_id": "274",
        "stop_code": "02",
        "stop_name": "Sadyba"
      },
      "geometry": {
        "type": "Point",
        "coordinates": [
          21.068458,
          52.182764
        ]
      }
    },
    {
      "type": "Feature",
      "properties": {
        "stop_id": "287",
        "stop_code": "05",
        "stop_name": "EC Siekierki"
      },
      "geometry": {
        "type": "Point",
        "coordinates": [
          21.085261,
          52.193315
        ]
      }
    },
    {
      "type": "Feature",
      "properties": {
        "stop_id": "297",
        "stop_code": "02",
        "stop_name": "Jeziorko Czerniakowskie"
      },
      "geometry": {
        "type": "Point",
        "coordinates": [
          21.067787,
          52.191965
        ]
      }
    },
    {
      "type": "Feature",
      "properties": {
        "stop_id": "299",
        "stop_code": "01",
        "stop_name": "Klarysewska"
      },
      "geometry": {
        "type": "Point",
        "coordinates": [
          21.06086,
          52.18482
        ]
      }
    },
    {
      "type": "Feature",
      "properties": {
        "stop_id": "309",
        "stop_code": "01",
        "stop_name": "Wyczółki"
      },
      "geometry": {
        "type": "Point",
        "coordinates": [
          21.00238,
          52.15825
        ]
      }
    },
    {
      "type": "Feature",
      "properties": {
        "stop_id": "311",
        "stop_code": "01",
        "stop_name": "Madalińskiego-Szpital"
      },
      "geometry": {
        "type": "Point",
        "coordinates": [
          21.015843,
          52.204268
        ]
      }
    },
    {
      "type": "Feature",
      "properties": {
        "stop_id": "316",
        "stop_code": "02",
        "stop_name": "Os. Domaniewska"
      },
      "geometry": {
        "type": "Point",
        "coordinates": [
          21.020241,
          52.183817
        ]
      }
    },
    {
      "type": "Feature",
      "properties": {
        "stop_id": "318",
        "stop_code": "03",
        "stop_name": "Smoluchowskiego"
      },
      "geometry": {
        "type": "Point",
        "coordinates": [
          21.01517,
          52.179871
        ]
      }
    },
    {
      "type": "Feature",
      "properties": {
        "stop_id": "321",
        "stop_code": "06",
        "stop_name": "Samochodowa"
      },
      "geometry": {
        "type": "Point",
        "coordinates": [
          21.007489,
          52.189475
        ]
      }
    },
    {
      "type": "Feature",
      "properties": {
        "stop_id": "324",
        "stop_code": "02",
        "stop_name": "Ursynów Płn."
      },
      "geometry": {
        "type": "Point",
        "coordinates": [
          21.037745,
          52.162936
        ]
      }
    },
    {
      "type": "Feature",
      "properties": {
        "stop_id": "275",
        "stop_code": "03",
        "stop_name": "Wiertnicza"
      },
      "geometry": {
        "type": "Point",
        "coordinates": [
          21.072573,
          52.179577
        ]
      }
    },
    {
      "type": "Feature",
      "properties": {
        "stop_id": "278",
        "stop_code": "01",
        "stop_name": "Budexpo"
      },
      "geometry": {
        "type": "Point",
        "coordinates": [
          21.059344,
          52.212736
        ]
      }
    },
    {
      "type": "Feature",
      "properties": {
        "stop_id": "279",
        "stop_code": "02",
        "stop_name": "Figowa"
      },
      "geometry": {
        "type": "Point",
        "coordinates": [
          21.067805,
          52.212397
        ]
      }
    },
    {
      "type": "Feature",
      "properties": {
        "stop_id": "280",
        "stop_code": "02",
        "stop_name": "Łososiowa"
      },
      "geometry": {
        "type": "Point",
        "coordinates": [
          21.074182,
          52.211714
        ]
      }
    },
    {
      "type": "Feature",
      "properties": {
        "stop_id": "282",
        "stop_code": "02",
        "stop_name": "Gąsocińska"
      },
      "geometry": {
        "type": "Point",
        "coordinates": [
          21.074547,
          52.206373
        ]
      }
    },
    {
      "type": "Feature",
      "properties": {
        "stop_id": "291",
        "stop_code": "01",
        "stop_name": "Santocka"
      },
      "geometry": {
        "type": "Point",
        "coordinates": [
          21.077617,
          52.182645
        ]
      }
    },
    {
      "type": "Feature",
      "properties": {
        "stop_id": "294",
        "stop_code": "01",
        "stop_name": "Zakrzewska"
      },
      "geometry": {
        "type": "Point",
        "coordinates": [
          21.042096,
          52.202156
        ]
      }
    },
    {
      "type": "Feature",
      "properties": {
        "stop_id": "302",
        "stop_code": "02",
        "stop_name": "Wróbla"
      },
      "geometry": {
        "type": "Point",
        "coordinates": [
          21.030723,
          52.173513
        ]
      }
    },
    {
      "type": "Feature",
      "properties": {
        "stop_id": "304",
        "stop_code": "02",
        "stop_name": "Nowoursynowska"
      },
      "geometry": {
        "type": "Point",
        "coordinates": [
          21.04186,
          52.17099
        ]
      }
    },
    {
      "type": "Feature",
      "properties": {
        "stop_id": "306",
        "stop_code": "01",
        "stop_name": "SGGW-Rektorat"
      },
      "geometry": {
        "type": "Point",
        "coordinates": [
          21.047818,
          52.162465
        ]
      }
    },
    {
      "type": "Feature",
      "properties": {
        "stop_id": "307",
        "stop_code": "01",
        "stop_name": "Tango"
      },
      "geometry": {
        "type": "Point",
        "coordinates": [
          21.011871,
          52.153967
        ]
      }
    },
    {
      "type": "Feature",
      "properties": {
        "stop_id": "319",
        "stop_code": "02",
        "stop_name": "Metro Wierzbno"
      },
      "geometry": {
        "type": "Point",
        "coordinates": [
          21.016916,
          52.189597
        ]
      }
    },
    {
      "type": "Feature",
      "properties": {
        "stop_id": "325",
        "stop_code": "03",
        "stop_name": "Strzeleckiego"
      },
      "geometry": {
        "type": "Point",
        "coordinates": [
          21.046209,
          52.157185
        ]
      }
    },
    {
      "type": "Feature",
      "properties": {
        "stop_id": "327",
        "stop_code": "01",
        "stop_name": "Nugat"
      },
      "geometry": {
        "type": "Point",
        "coordinates": [
          21.051899,
          52.155812
        ]
      }
    },
    {
      "type": "Feature",
      "properties": {
        "stop_id": "330",
        "stop_code": "01",
        "stop_name": "Tagore'a"
      },
      "geometry": {
        "type": "Point",
        "coordinates": [
          21.00822,
          52.195326
        ]
      }
    },
    {
      "type": "Feature",
      "properties": {
        "stop_id": "333",
        "stop_code": "02",
        "stop_name": "Megasam"
      },
      "geometry": {
        "type": "Point",
        "coordinates": [
          21.021303,
          52.158893
        ]
      }
    },
    {
      "type": "Feature",
      "properties": {
        "stop_id": "335",
        "stop_code": "01",
        "stop_name": "Dunikowskiego"
      },
      "geometry": {
        "type": "Point",
        "coordinates": [
          21.0319,
          52.15435
        ]
      }
    },
    {
      "type": "Feature",
      "properties": {
        "stop_id": "344",
        "stop_code": "01",
        "stop_name": "Szolc-Rogozińskiego"
      },
      "geometry": {
        "type": "Point",
        "coordinates": [
          21.053264,
          52.149916
        ]
      }
    },
    {
      "type": "Feature",
      "properties": {
        "stop_id": "350",
        "stop_code": "02",
        "stop_name": "Zawady"
      },
      "geometry": {
        "type": "Point",
        "coordinates": [
          21.118836,
          52.159448
        ]
      }
    },
    {
      "type": "Feature",
      "properties": {
        "stop_id": "356",
        "stop_code": "01",
        "stop_name": "Energetyczna"
      },
      "geometry": {
        "type": "Point",
        "coordinates": [
          21.019278,
          52.087367
        ]
      }
    },
    {
      "type": "Feature",
      "properties": {
        "stop_id": "363",
        "stop_code": "02",
        "stop_name": "Zalesie Dolne"
      },
      "geometry": {
        "type": "Point",
        "coordinates": [
          21.008649,
          52.057609
        ]
      }
    },
    {
      "type": "Feature",
      "properties": {
        "stop_id": "367",
        "stop_code": "01",
        "stop_name": "Park Zdrojowy"
      },
      "geometry": {
        "type": "Point",
        "coordinates": [
          21.119725,
          52.084256
        ]
      }
    },
    {
      "type": "Feature",
      "properties": {
        "stop_id": "370",
        "stop_code": "02",
        "stop_name": "Klarysew"
      },
      "geometry": {
        "type": "Point",
        "coordinates": [
          21.114412,
          52.10319
        ]
      }
    },
    {
      "type": "Feature",
      "properties": {
        "stop_id": "378",
        "stop_code": "02",
        "stop_name": "Jara"
      },
      "geometry": {
        "type": "Point",
        "coordinates": [
          21.107778,
          52.173012
        ]
      }
    },
    {
      "type": "Feature",
      "properties": {
        "stop_id": "381",
        "stop_code": "02",
        "stop_name": "Belgradzka"
      },
      "geometry": {
        "type": "Point",
        "coordinates": [
          21.065742,
          52.143001
        ]
      }
    },
    {
      "type": "Feature",
      "properties": {
        "stop_id": "385",
        "stop_code": "02",
        "stop_name": "Grzegorzewskiej"
      },
      "geometry": {
        "type": "Point",
        "coordinates": [
          21.055583,
          52.153206
        ]
      }
    },
    {
      "type": "Feature",
      "properties": {
        "stop_id": "386",
        "stop_code": "02",
        "stop_name": "Płaskowickiej"
      },
      "geometry": {
        "type": "Point",
        "coordinates": [
          21.059231,
          52.150014
        ]
      }
    },
    {
      "type": "Feature",
      "properties": {
        "stop_id": "394",
        "stop_code": "02",
        "stop_name": "Madalińskiego"
      },
      "geometry": {
        "type": "Point",
        "coordinates": [
          21.010095,
          52.203651
        ]
      }
    },
    {
      "type": "Feature",
      "properties": {
        "stop_id": "398",
        "stop_code": "01",
        "stop_name": "Joliot-Curie"
      },
      "geometry": {
        "type": "Point",
        "coordinates": [
          21.011038,
          52.192534
        ]
      }
    },
    {
      "type": "Feature",
      "properties": {
        "stop_id": "401",
        "stop_code": "05",
        "stop_name": "Kulskiego"
      },
      "geometry": {
        "type": "Point",
        "coordinates": [
          21.002524,
          52.201944
        ]
      }
    },
    {
      "type": "Feature",
      "properties": {
        "stop_id": "403",
        "stop_code": "01",
        "stop_name": "Wołoska"
      },
      "geometry": {
        "type": "Point",
        "coordinates": [
          21.001437,
          52.194797
        ]
      }
    },
    {
      "type": "Feature",
      "properties": {
        "stop_id": "406",
        "stop_code": "06",
        "stop_name": "Rondo Unii Europejskiej"
      },
      "geometry": {
        "type": "Point",
        "coordinates": [
          21.002602,
          52.179055
        ]
      }
    },
    {
      "type": "Feature",
      "properties": {
        "stop_id": "408",
        "stop_code": "02",
        "stop_name": "Gotarda"
      },
      "geometry": {
        "type": "Point",
        "coordinates": [
          21.004566,
          52.172208
        ]
      }
    },
    {
      "type": "Feature",
      "properties": {
        "stop_id": "412",
        "stop_code": "01",
        "stop_name": "Instytut Fizyki"
      },
      "geometry": {
        "type": "Point",
        "coordinates": [
          21.007249,
          52.177441
        ]
      }
    },
    {
      "type": "Feature",
      "properties": {
        "stop_id": "416",
        "stop_code": "01",
        "stop_name": "Instytut Reumatologii"
      },
      "geometry": {
        "type": "Point",
        "coordinates": [
          20.99548,
          52.191005
        ]
      }
    },
    {
      "type": "Feature",
      "properties": {
        "stop_id": "421",
        "stop_code": "01",
        "stop_name": "Stolbud"
      },
      "geometry": {
        "type": "Point",
        "coordinates": [
          20.997646,
          52.184336
        ]
      }
    },
    {
      "type": "Feature",
      "properties": {
        "stop_id": "447",
        "stop_code": "02",
        "stop_name": "Bukowińska"
      },
      "geometry": {
        "type": "Point",
        "coordinates": [
          21.024972,
          52.186834
        ]
      }
    },
    {
      "type": "Feature",
      "properties": {
        "stop_id": "457",
        "stop_code": "02",
        "stop_name": "Metro Wilanowska"
      },
      "geometry": {
        "type": "Point",
        "coordinates": [
          21.023139,
          52.181484
        ]
      }
    },
    {
      "type": "Feature",
      "properties": {
        "stop_id": "461",
        "stop_code": "01",
        "stop_name": "Al. Lotników"
      },
      "geometry": {
        "type": "Point",
        "coordinates": [
          21.019512,
          52.17231
        ]
      }
    },
    {
      "type": "Feature",
      "properties": {
        "stop_id": "466",
        "stop_code": "03",
        "stop_name": "Poleczki"
      },
      "geometry": {
        "type": "Point",
        "coordinates": [
          21.01924,
          52.15241
        ]
      }
    },
    {
      "type": "Feature",
      "properties": {
        "stop_id": "471",
        "stop_code": "01",
        "stop_name": "Bogatki"
      },
      "geometry": {
        "type": "Point",
        "coordinates": [
          21.017773,
          52.131876
        ]
      }
    },
    {
      "type": "Feature",
      "properties": {
        "stop_id": "473",
        "stop_code": "01",
        "stop_name": "Pelikanów"
      },
      "geometry": {
        "type": "Point",
        "coordinates": [
          21.01802,
          52.122514
        ]
      }
    },
    {
      "type": "Feature",
      "properties": {
        "stop_id": "475",
        "stop_code": "04",
        "stop_name": "Karczunkowska"
      },
      "geometry": {
        "type": "Point",
        "coordinates": [
          21.017413,
          52.111182
        ]
      }
    },
    {
      "type": "Feature",
      "properties": {
        "stop_id": "201",
        "stop_code": "02",
        "stop_name": "Hala Kopińska"
      },
      "geometry": {
        "type": "Point",
        "coordinates": [
          20.976372,
          52.218043
        ]
      }
    },
    {
      "type": "Feature",
      "properties": {
        "stop_id": "203",
        "stop_code": "01",
        "stop_name": "Opaczewska"
      },
      "geometry": {
        "type": "Point",
        "coordinates": [
          20.970531,
          52.209905
        ]
      }
    },
    {
      "type": "Feature",
      "properties": {
        "stop_id": "210",
        "stop_code": "04",
        "stop_name": "Opaczewska"
      },
      "geometry": {
        "type": "Point",
        "coordinates": [
          20.969488,
          52.210535
        ]
      }
    },
    {
      "type": "Feature",
      "properties": {
        "stop_id": "223",
        "stop_code": "18",
        "stop_name": "Metro Wilanowska"
      },
      "geometry": {
        "type": "Point",
        "coordinates": [
          21.024275,
          52.179943
        ]
      }
    },
    {
      "type": "Feature",
      "properties": {
        "stop_id": "233",
        "stop_code": "02",
        "stop_name": "Jagielska"
      },
      "geometry": {
        "type": "Point",
        "coordinates": [
          21.018592,
          52.11533
        ]
      }
    },
    {
      "type": "Feature",
      "properties": {
        "stop_id": "235",
        "stop_code": "02",
        "stop_name": "Dąbrówka"
      },
      "geometry": {
        "type": "Point",
        "coordinates": [
          21.018809,
          52.106583
        ]
      }
    },
    {
      "type": "Feature",
      "properties": {
        "stop_id": "251",
        "stop_code": "02",
        "stop_name": "Patkowskiego"
      },
      "geometry": {
        "type": "Point",
        "coordinates": [
          21.054578,
          52.172891
        ]
      }
    },
    {
      "type": "Feature",
      "properties": {
        "stop_id": "266",
        "stop_code": "03",
        "stop_name": "Bartycka"
      },
      "geometry": {
        "type": "Point",
        "coordinates": [
          21.04823,
          52.21176
        ]
      }
    },
    {
      "type": "Feature",
      "properties": {
        "stop_id": "267",
        "stop_code": "02",
        "stop_name": "Sielce"
      },
      "geometry": {
        "type": "Point",
        "coordinates": [
          21.04854,
          52.20792
        ]
      }
    },
    {
      "type": "Feature",
      "properties": {
        "stop_id": "269",
        "stop_code": "02",
        "stop_name": "Al. Witosa"
      },
      "geometry": {
        "type": "Point",
        "coordinates": [
          21.051419,
          52.199018
        ]
      }
    },
    {
      "type": "Feature",
      "properties": {
        "stop_id": "273",
        "stop_code": "01",
        "stop_name": "Goraszewska"
      },
      "geometry": {
        "type": "Point",
        "coordinates": [
          21.064485,
          52.185968
        ]
      }
    },
    {
      "type": "Feature",
      "properties": {
        "stop_id": "288",
        "stop_code": "01",
        "stop_name": "Statkowskiego"
      },
      "geometry": {
        "type": "Point",
        "coordinates": [
          21.083179,
          52.190773
        ]
      }
    },
    {
      "type": "Feature",
      "properties": {
        "stop_id": "293",
        "stop_code": "01",
        "stop_name": "Iwicka"
      },
      "geometry": {
        "type": "Point",
        "coordinates": [
          21.042914,
          52.206586
        ]
      }
    },
    {
      "type": "Feature",
      "properties": {
        "stop_id": "300",
        "stop_code": "01",
        "stop_name": "Batumi"
      },
      "geometry": {
        "type": "Point",
        "coordinates": [
          21.053985,
          52.180433
        ]
      }
    },
    {
      "type": "Feature",
      "properties": {
        "stop_id": "301",
        "stop_code": "02",
        "stop_name": "Warneńska"
      },
      "geometry": {
        "type": "Point",
        "coordinates": [
          21.04577,
          52.183696
        ]
      }
    },
    {
      "type": "Feature",
      "properties": {
        "stop_id": "303",
        "stop_code": "01",
        "stop_name": "Noskowskiego"
      },
      "geometry": {
        "type": "Point",
        "coordinates": [
          21.039034,
          52.172518
        ]
      }
    },
    {
      "type": "Feature",
      "properties": {
        "stop_id": "317",
        "stop_code": "02",
        "stop_name": "Modzelewskiego"
      },
      "geometry": {
        "type": "Point",
        "coordinates": [
          21.014711,
          52.183385
        ]
      }
    },
    {
      "type": "Feature",
      "properties": {
        "stop_id": "320",
        "stop_code": "02",
        "stop_name": "Telewizja Polska"
      },
      "geometry": {
        "type": "Point",
        "coordinates": [
          21.012771,
          52.189101
        ]
      }
    },
    {
      "type": "Feature",
      "properties": {
        "stop_id": "322",
        "stop_code": "01",
        "stop_name": "Konduktorska"
      },
      "geometry": {
        "type": "Point",
        "coordinates": [
          21.031341,
          52.200955
        ]
      }
    },
    {
      "type": "Feature",
      "properties": {
        "stop_id": "328",
        "stop_code": "02",
        "stop_name": "Kopcińskiego"
      },
      "geometry": {
        "type": "Point",
        "coordinates": [
          21.055087,
          52.158588
        ]
      }
    },
    {
      "type": "Feature",
      "properties": {
        "stop_id": "329",
        "stop_code": "01",
        "stop_name": "Łowicka"
      },
      "geometry": {
        "type": "Point",
        "coordinates": [
          21.005726,
          52.2025
        ]
      }
    },
    {
      "type": "Feature",
      "properties": {
        "stop_id": "332",
        "stop_code": "03",
        "stop_name": "Metro Ursynów"
      },
      "geometry": {
        "type": "Point",
        "coordinates": [
          21.026353,
          52.161956
        ]
      }
    },
    {
      "type": "Feature",
      "properties": {
        "stop_id": "334",
        "stop_code": "01",
        "stop_name": "Pięciolinii"
      },
      "geometry": {
        "type": "Point",
        "coordinates": [
          21.02301,
          52.155768
        ]
      }
    },
    {
      "type": "Feature",
      "properties": {
        "stop_id": "338",
        "stop_code": "01",
        "stop_name": "Ursynów Płd."
      },
      "geometry": {
        "type": "Point",
        "coordinates": [
          21.03933,
          52.15392
        ]
      }
    },
    {
      "type": "Feature",
      "properties": {
        "stop_id": "340",
        "stop_code": "05",
        "stop_name": "Polinezyjska"
      },
      "geometry": {
        "type": "Point",
        "coordinates": [
          21.048282,
          52.150811
        ]
      }
    },
    {
      "type": "Feature",
      "properties": {
        "stop_id": "341",
        "stop_code": "03",
        "stop_name": "Miklaszewskiego"
      },
      "geometry": {
        "type": "Point",
        "coordinates": [
          21.043151,
          52.148193
        ]
      }
    },
    {
      "type": "Feature",
      "properties": {
        "stop_id": "343",
        "stop_code": "01",
        "stop_name": "Natolin Płn."
      },
      "geometry": {
        "type": "Point",
        "coordinates": [
          21.054619,
          52.146814
        ]
      }
    },
    {
      "type": "Feature",
      "properties": {
        "stop_id": "345",
        "stop_code": "02",
        "stop_name": "Migdałowa"
      },
      "geometry": {
        "type": "Point",
        "coordinates": [
          21.056774,
          52.145385
        ]
      }
    },
    {
      "type": "Feature",
      "properties": {
        "stop_id": "346",
        "stop_code": "01",
        "stop_name": "Europejska"
      },
      "geometry": {
        "type": "Point",
        "coordinates": [
          21.092919,
          52.160745
        ]
      }
    },
    {
      "type": "Feature",
      "properties": {
        "stop_id": "352",
        "stop_code": "01",
        "stop_name": "Grabalówki"
      },
      "geometry": {
        "type": "Point",
        "coordinates": [
          21.132814,
          52.15126
        ]
      }
    },
    {
      "type": "Feature",
      "properties": {
        "stop_id": "355",
        "stop_code": "02",
        "stop_name": "Mysiadło"
      },
      "geometry": {
        "type": "Point",
        "coordinates": [
          21.019044,
          52.098557
        ]
      }
    },
    {
      "type": "Feature",
      "properties": {
        "stop_id": "361",
        "stop_code": "02",
        "stop_name": "Kolejka Piaseczyńska"
      },
      "geometry": {
        "type": "Point",
        "coordinates": [
          21.025095,
          52.069108
        ]
      }
    },
    {
      "type": "Feature",
      "properties": {
        "stop_id": "366",
        "stop_code": "02",
        "stop_name": "Dom Artystów"
      },
      "geometry": {
        "type": "Point",
        "coordinates": [
          21.079689,
          52.084638
        ]
      }
    },
    {
      "type": "Feature",
      "properties": {
        "stop_id": "379",
        "stop_code": "02",
        "stop_name": "Siedliskowa"
      },
      "geometry": {
        "type": "Point",
        "coordinates": [
          21.10712,
          52.176264
        ]
      }
    },
    {
      "type": "Feature",
      "properties": {
        "stop_id": "382",
        "stop_code": "02",
        "stop_name": "Lokajskiego"
      },
      "geometry": {
        "type": "Point",
        "coordinates": [
          21.068778,
          52.139723
        ]
      }
    },
    {
      "type": "Feature",
      "properties": {
        "stop_id": "384",
        "stop_code": "01",
        "stop_name": "Dom Kultury"
      },
      "geometry": {
        "type": "Point",
        "coordinates": [
          21.028058,
          52.067919
        ]
      }
    },
    {
      "type": "Feature",
      "properties": {
        "stop_id": "387",
        "stop_code": "01",
        "stop_name": "Kiepury"
      },
      "geometry": {
        "type": "Point",
        "coordinates": [
          21.072786,
          52.13598
        ]
      }
    },
    {
      "type": "Feature",
      "properties": {
        "stop_id": "409",
        "stop_code": "02",
        "stop_name": "Orzycka"
      },
      "geometry": {
        "type": "Point",
        "coordinates": [
          21.009078,
          52.171125
        ]
      }
    },
    {
      "type": "Feature",
      "properties": {
        "stop_id": "410",
        "stop_code": "01",
        "stop_name": "Bartłomieja"
      },
      "geometry": {
        "type": "Point",
        "coordinates": [
          21.008972,
          52.169752
        ]
      }
    },
    {
      "type": "Feature",
      "properties": {
        "stop_id": "414",
        "stop_code": "01",
        "stop_name": "Miłobędzka"
      },
      "geometry": {
        "type": "Point",
        "coordinates": [
          20.993544,
          52.196523
        ]
      }
    },
    {
      "type": "Feature",
      "properties": {
        "stop_id": "420",
        "stop_code": "04",
        "stop_name": "Racjonalizacji"
      },
      "geometry": {
        "type": "Point",
        "coordinates": [
          20.992908,
          52.186101
        ]
      }
    },
    {
      "type": "Feature",
      "properties": {
        "stop_id": "424",
        "stop_code": "01",
        "stop_name": "Jadźwingów"
      },
      "geometry": {
        "type": "Point",
        "coordinates": [
          21.004362,
          52.171209
        ]
      }
    },
    {
      "type": "Feature",
      "properties": {
        "stop_id": "428",
        "stop_code": "01",
        "stop_name": "Metro Imielin"
      },
      "geometry": {
        "type": "Point",
        "coordinates": [
          21.046395,
          52.150203
        ]
      }
    },
    {
      "type": "Feature",
      "properties": {
        "stop_id": "231",
        "stop_code": "02",
        "stop_name": "Pelikanów"
      },
      "geometry": {
        "type": "Point",
        "coordinates": [
          21.018394,
          52.12365
        ]
      }
    },
    {
      "type": "Feature",
      "properties": {
        "stop_id": "249",
        "stop_code": "01",
        "stop_name": "Dominikańska"
      },
      "geometry": {
        "type": "Point",
        "coordinates": [
          21.035905,
          52.176919
        ]
      }
    },
    {
      "type": "Feature",
      "properties": {
        "stop_id": "253",
        "stop_code": "01",
        "stop_name": "Królowej Marysieńki"
      },
      "geometry": {
        "type": "Point",
        "coordinates": [
          21.076545,
          52.167715
        ]
      }
    },
    {
      "type": "Feature",
      "properties": {
        "stop_id": "257",
        "stop_code": "02",
        "stop_name": "Pałacowa"
      },
      "geometry": {
        "type": "Point",
        "coordinates": [
          21.093972,
          52.146629
        ]
      }
    },
    {
      "type": "Feature",
      "properties": {
        "stop_id": "262",
        "stop_code": "02",
        "stop_name": "Gąsek"
      },
      "geometry": {
        "type": "Point",
        "coordinates": [
          21.093885,
          52.121135
        ]
      }
    },
    {
      "type": "Feature",
      "properties": {
        "stop_id": "276",
        "stop_code": "02",
        "stop_name": "Łowcza"
      },
      "geometry": {
        "type": "Point",
        "coordinates": [
          21.077581,
          52.175536
        ]
      }
    },
    {
      "type": "Feature",
      "properties": {
        "stop_id": "277",
        "stop_code": "01",
        "stop_name": "Kosiarzy"
      },
      "geometry": {
        "type": "Point",
        "coordinates": [
          21.081922,
          52.170862
        ]
      }
    },
    {
      "type": "Feature",
      "properties": {
        "stop_id": "281",
        "stop_code": "01",
        "stop_name": "Siekierkowska"
      },
      "geometry": {
        "type": "Point",
        "coordinates": [
          21.077375,
          52.208792
        ]
      }
    },
    {
      "type": "Feature",
      "properties": {
        "stop_id": "292",
        "stop_code": "01",
        "stop_name": "Stępińska"
      },
      "geometry": {
        "type": "Point",
        "coordinates": [
          21.037025,
          52.206658
        ]
      }
    },
    {
      "type": "Feature",
      "properties": {
        "stop_id": "296",
        "stop_code": "01",
        "stop_name": "Os. Bernardyńska"
      },
      "geometry": {
        "type": "Point",
        "coordinates": [
          21.064382,
          52.192243
        ]
      }
    },
    {
      "type": "Feature",
      "properties": {
        "stop_id": "298",
        "stop_code": "01",
        "stop_name": "Sypniewska"
      },
      "geometry": {
        "type": "Point",
        "coordinates": [
          21.075717,
          52.190583
        ]
      }
    },
    {
      "type": "Feature",
      "properties": {
        "stop_id": "305",
        "stop_code": "01",
        "stop_name": "Arbuzowa"
      },
      "geometry": {
        "type": "Point",
        "coordinates": [
          21.043792,
          52.167594
        ]
      }
    },
    {
      "type": "Feature",
      "properties": {
        "stop_id": "308",
        "stop_code": "02",
        "stop_name": "Łączyny"
      },
      "geometry": {
        "type": "Point",
        "coordinates": [
          21.002631,
          52.15675
        ]
      }
    },
    {
      "type": "Feature",
      "properties": {
        "stop_id": "315",
        "stop_code": "02",
        "stop_name": "Ksawerów"
      },
      "geometry": {
        "type": "Point",
        "coordinates": [
          21.018245,
          52.187227
        ]
      }
    },
    {
      "type": "Feature",
      "properties": {
        "stop_id": "326",
        "stop_code": "03",
        "stop_name": "Teligi"
      },
      "geometry": {
        "type": "Point",
        "coordinates": [
          21.05084,
          52.154719
        ]
      }
    },
    {
      "type": "Feature",
      "properties": {
        "stop_id": "331",
        "stop_code": "04",
        "stop_name": "Metro Ursynów"
      },
      "geometry": {
        "type": "Point",
        "coordinates": [
          21.029379,
          52.161971
        ]
      }
    },
    {
      "type": "Feature",
      "properties": {
        "stop_id": "336",
        "stop_code": "01",
        "stop_name": "Metro Stokłosy"
      },
      "geometry": {
        "type": "Point",
        "coordinates": [
          21.035185,
          52.156487
        ]
      }
    },
    {
      "type": "Feature",
      "properties": {
        "stop_id": "339",
        "stop_code": "01",
        "stop_name": "Magellana"
      },
      "geometry": {
        "type": "Point",
        "coordinates": [
          21.042207,
          52.155087
        ]
      }
    },
    {
      "type": "Feature",
      "properties": {
        "stop_id": "347",
        "stop_code": "02",
        "stop_name": "Vogla-Morysin"
      },
      "geometry": {
        "type": "Point",
        "coordinates": [
          21.100796,
          52.161282
        ]
      }
    },
    {
      "type": "Feature",
      "properties": {
        "stop_id": "362",
        "stop_code": "01",
        "stop_name": "PKP Piaseczno"
      },
      "geometry": {
        "type": "Point",
        "coordinates": [
          21.019095,
          52.065282
        ]
      }
    },
    {
      "type": "Feature",
      "properties": {
        "stop_id": "365",
        "stop_code": "02",
        "stop_name": "Zielona"
      },
      "geometry": {
        "type": "Point",
        "coordinates": [
          21.04856,
          52.07687
        ]
      }
    },
    {
      "type": "Feature",
      "properties": {
        "stop_id": "368",
        "stop_code": "01",
        "stop_name": "Sobieskiego"
      },
      "geometry": {
        "type": "Point",
        "coordinates": [
          21.121453,
          52.088484
        ]
      }
    },
    {
      "type": "Feature",
      "properties": {
        "stop_id": "374",
        "stop_code": "02",
        "stop_name": "Polna"
      },
      "geometry": {
        "type": "Point",
        "coordinates": [
          21.116701,
          52.096698
        ]
      }
    },
    {
      "type": "Feature",
      "properties": {
        "stop_id": "375",
        "stop_code": "01",
        "stop_name": "Małcużyńskiego"
      },
      "geometry": {
        "type": "Point",
        "coordinates": [
          21.055169,
          52.139057
        ]
      }
    },
    {
      "type": "Feature",
      "properties": {
        "stop_id": "377",
        "stop_code": "02",
        "stop_name": "Zaściankowa"
      },
      "geometry": {
        "type": "Point",
        "coordinates": [
          21.108,
          52.16708
        ]
      }
    },
    {
      "type": "Feature",
      "properties": {
        "stop_id": "380",
        "stop_code": "01",
        "stop_name": "Zaolziańska"
      },
      "geometry": {
        "type": "Point",
        "coordinates": [
          21.021016,
          52.160773
        ]
      }
    },
    {
      "type": "Feature",
      "properties": {
        "stop_id": "390",
        "stop_code": "02",
        "stop_name": "Śniadeckich"
      },
      "geometry": {
        "type": "Point",
        "coordinates": [
          21.075443,
          52.084881
        ]
      }
    },
    {
      "type": "Feature",
      "properties": {
        "stop_id": "396",
        "stop_code": "02",
        "stop_name": "Odyńca"
      },
      "geometry": {
        "type": "Point",
        "coordinates": [
          21.013227,
          52.1972
        ]
      }
    },
    {
      "type": "Feature",
      "properties": {
        "stop_id": "397",
        "stop_code": "02",
        "stop_name": "Polskie Radio"
      },
      "geometry": {
        "type": "Point",
        "coordinates": [
          21.014868,
          52.193664
        ]
      }
    },
    {
      "type": "Feature",
      "properties": {
        "stop_id": "404",
        "stop_code": "01",
        "stop_name": "Konstruktorska"
      },
      "geometry": {
        "type": "Point",
        "coordinates": [
          21.001875,
          52.185887
        ]
      }
    },
    {
      "type": "Feature",
      "properties": {
        "stop_id": "405",
        "stop_code": "01",
        "stop_name": "Domaniewska"
      },
      "geometry": {
        "type": "Point",
        "coordinates": [
          21.001947,
          52.182702
        ]
      }
    },
    {
      "type": "Feature",
      "properties": {
        "stop_id": "407",
        "stop_code": "02",
        "stop_name": "Cybernetyki"
      },
      "geometry": {
        "type": "Point",
        "coordinates": [
          21.002715,
          52.176265
        ]
      }
    },
    {
      "type": "Feature",
      "properties": {
        "stop_id": "413",
        "stop_code": "01",
        "stop_name": "Postępu"
      },
      "geometry": {
        "type": "Point",
        "coordinates": [
          20.998383,
          52.178861
        ]
      }
    },